City_ID,City,Lat,Lng,Max Temp,Humidity,Cloudiness,Wind Speed,Country,Date
0,pocone,-16.2567,-56.6228,24.91,29,0,1.95,BR,1690940499
1,ilulissat,69.2167,-51.1,6.01,100,100,2.06,GL,1690940327
2,iqaluit,63.7506,-68.5145,5.85,86,40,1.54,CA,1690940499
3,diu,20.7141,70.9822,26.96,84,100,7.47,IN,1690940500
4,iskushuban,10.2837,50.23,28.5,41,100,8.72,SO,1690940500
5,haiku-pauwela,20.9219,-156.3051,29.01,62,40,11.83,US,1690940500
6,ushuaia,-54.8,-68.3,-1.19,93,75,10.8,AR,1690940500
7,la'ie,21.6477,-157.9253,30.98,64,0,2.68,US,1690940501
8,tazovsky,67.4667,78.7,18.64,78,11,6.8,RU,1690940501
9,lebu,-37.6167,-73.65,9.7,85,12,1.53,CL,1690940501
10,petropavlovsk-kamchatsky,53.0452,158.6483,19.33,60,20,2.0,RU,1690940501
11,port-aux-francais,-49.35,70.2167,3.79,81,83,19.5,TF,1690940502
12,flying fish cove,-10.4217,105.6791,24.82,88,100,4.12,CX,1690940502
13,fale old settlement,-9.3852,-171.2468,28.55,74,16,5.48,TK,1690940502
14,klyuchi,52.2667,79.1667,26.32,39,4,1.44,RU,1690940502
15,margaret river,-33.95,115.0667,14.84,92,100,3.91,AU,1690940410
16,punta arenas,-53.15,-70.9167,0.62,86,40,10.8,CL,1690940503
17,kodiak,57.79,-152.4072,20.73,56,0,2.57,US,1690940503
18,ancud,-41.8697,-73.8203,8.04,79,94,7.21,CL,1690940503
19,alice springs,-23.7,133.8833,18.75,34,0,5.66,AU,1690940504
20,waitangi,-43.9535,-176.5597,11.01,89,100,4.02,NZ,1690940504
21,nasir,15.5894,32.5634,29.38,57,95,5.65,SD,1690940504
22,albany,42.6001,-73.9662,17.55,74,60,1.84,US,1690940045
23,adamstown,-25.066,-130.1015,20.86,58,57,8.83,PN,1690940504
24,edinburgh of the seven seas,-37.0676,-12.3116,13.85,91,100,10.8,SH,1690940505
25,afaahiti,-17.75,-149.2833,26.93,72,100,5.55,PF,1690940505
26,kattivakkam,13.2167,80.3167,29.48,68,77,6.68,IN,1690940505
27,tukrah,32.5341,20.5791,25.93,69,0,1.34,LY,1690940505
28,bikenibeu village,1.3673,173.1241,30.98,66,75,1.54,KI,1690940506
29,kailua-kona,19.6406,-155.9956,29.17,73,75,5.14,US,1690940506
30,tolanaro,-25.0319,46.9987,19.04,77,20,3.09,MG,1690940506
31,caraballeda,10.6112,-66.8522,28.04,74,1,0.51,VE,1690940506
32,mahina,-17.5065,-149.489,27.87,61,20,9.26,PF,1690940507
33,lihue,21.9789,-159.3672,30.58,68,40,8.23,US,1690940507
34,sechura,-5.5569,-80.8222,22.01,76,6,6.12,PE,1690940507
35,blackmans bay,-43.0167,147.3167,10.96,69,19,2.08,AU,1690940508
36,nar'yan-mar,67.6713,53.087,18.63,72,0,4.41,RU,1690940508
37,santiago,-33.4569,-70.6483,19.63,55,0,2.57,CL,1690940253
38,olonkinbyen,70.9221,-8.7187,5.73,93,36,3.45,SJ,1690940508
39,cill airne,52.05,-9.5167,14.0,96,100,2.87,IE,1690940509
40,bilibino,68.0546,166.4372,15.33,49,17,1.27,RU,1690940509
41,laojunmiao,39.8333,97.7333,23.64,26,99,0.56,CN,1690940509
42,port mathurin,-19.6833,63.4167,23.38,67,0,9.67,MU,1690940509
43,hamilton,39.1834,-84.5333,23.88,67,0,2.57,US,1690940042
44,grytviken,-54.2811,-36.5092,-2.81,91,100,1.66,GS,1690940510
45,tyuratam,45.6507,63.3156,27.24,24,0,1.74,KZ,1690940510
46,mahriz,31.5917,54.4318,24.28,15,0,2.08,IR,1690940510
47,sinop,41.7711,34.8709,18.09,82,91,1.87,TR,1690940511
48,invercargill,-46.4,168.35,6.68,73,74,5.81,NZ,1690940511
49,hermanus,-34.4187,19.2345,9.33,74,2,3.37,ZA,1690940511
50,enewetak,11.3474,162.3373,28.19,78,60,4.92,MH,1690940511
51,pontian kechil,1.4866,103.3896,30.87,79,16,3.85,MY,1690940512
52,carnarvon,-24.8667,113.6333,22.08,72,3,11.87,AU,1690940512
53,reggane,26.7158,0.1714,38.54,10,41,4.35,DZ,1690940512
54,longyearbyen,78.2186,15.6401,8.91,81,0,1.54,SJ,1690940512
55,guerrero negro,27.9769,-114.0611,23.19,72,6,6.81,MX,1690940513
56,kohima,25.6667,94.1167,21.88,89,100,1.35,IN,1690940513
57,kruisfontein,-34.0033,24.7314,8.27,70,28,2.69,ZA,1690940513
58,bafoulabe,13.8065,-10.8321,25.01,94,27,1.55,ML,1690940513
59,bubaque,11.2833,-15.8333,26.89,81,100,5.11,GW,1690940514
60,mahanoro,-19.9,48.8,19.45,81,0,2.94,MG,1690940514
61,weno,7.4515,151.8468,29.97,84,100,0.0,FM,1690940514
62,vilyuchinsk,52.9306,158.4028,20.15,68,68,0.47,RU,1690940514
63,south hedland,-20.4089,118.5983,23.96,57,100,0.0,AU,1690940515
64,ciudad lazaro cardenas,17.9583,-102.2,27.75,80,55,1.61,MX,1690940515
65,toba,34.4833,136.85,31.0,70,40,4.12,JP,1690940515
66,las tablas,7.7667,-80.2833,26.76,99,40,1.01,PA,1690940515
67,santa elena de uairen,4.6167,-61.1333,19.46,90,92,0.97,VE,1690940516
68,tiksi,71.6872,128.8694,9.08,78,100,1.81,RU,1690940516
69,nakskov,54.8373,11.1284,16.17,85,0,5.86,DK,1690940516
70,kalmunai,7.4167,81.8167,27.83,63,100,1.6,LK,1690940516
71,tralee,52.2704,-9.7026,13.78,96,100,3.38,IE,1690940517
72,atafu village,-8.5421,-172.5159,28.67,72,93,5.82,TK,1690940517
73,port elizabeth,-33.918,25.5701,6.16,93,0,0.51,ZA,1690940517
74,talnakh,69.4865,88.3972,19.56,47,4,5.05,RU,1690940517
75,qulsary,46.9531,54.0198,26.93,31,0,3.82,KZ,1690940519
76,stanley,54.868,-1.6985,13.96,94,75,1.54,GB,1690940519
77,mangrol,21.1167,70.1167,27.15,84,100,8.18,IN,1690940519
78,segorbe,39.8138,-0.4521,24.85,67,0,1.96,ES,1690940520
79,kirensk,57.7853,108.1119,21.07,66,21,3.16,RU,1690940520
80,cihanbeyli,38.6607,32.9244,21.45,51,47,3.44,TR,1690940520
81,lompoc,34.6391,-120.4579,22.08,79,100,7.6,US,1690940225
82,kabala,9.5833,-11.55,21.32,99,100,1.47,SL,1690940521
83,orizona,-17.0314,-48.2958,18.81,50,0,1.81,BR,1690940521
84,bethel,41.3712,-73.414,20.27,71,0,1.54,US,1690940521
85,gisborne,-38.6533,178.0042,12.08,66,75,6.45,NZ,1690940522
86,la barceloneta,41.3807,2.1899,26.21,86,40,2.57,ES,1690940522
87,nizhnesortymskiy,62.4397,71.7603,21.02,71,42,7.37,RU,1690940522
88,qaqortoq,60.7167,-46.0333,6.4,84,20,0.31,GL,1690940522
89,tsiombe,-25.3,45.4833,19.67,54,92,4.12,MG,1690940523
90,huasahuasi,-11.3167,-75.6167,1.68,78,0,0.58,PE,1690940523
91,tutong,4.8,114.65,29.05,70,88,1.9,BN,1690940523
92,maridi,4.9158,29.4742,19.55,96,100,0.93,SS,1690940523
93,thompson,55.7435,-97.8558,16.09,100,75,1.54,CA,1690940524
94,vorgashor,67.5833,63.95,18.55,73,10,3.72,RU,1690940524
95,guadalupe y calvo,26.1,-106.9667,12.87,97,100,1.13,MX,1690940524
96,shimanovsk,52.0,127.7,25.57,42,3,4.16,RU,1690940524
97,hawaiian paradise park,19.5933,-154.9731,29.29,71,20,7.72,US,1690940525
98,mili,6.0815,171.735,28.04,73,6,0.13,MH,1690940525
99,aripuana,-9.1667,-60.6333,26.24,46,38,1.05,BR,1690940525
100,constantia,44.1833,28.65,18.38,84,94,4.65,RO,1690940525
101,krasnyy chikoy,50.3643,108.7512,21.04,88,100,0.87,RU,1690940526
102,saldanha,-33.0117,17.9442,9.99,73,75,4.27,ZA,1690940280
103,jamestown,42.097,-79.2353,17.8,59,0,2.06,US,1690940526
104,kununurra,-15.7667,128.7333,27.99,28,52,6.69,AU,1690940527
105,pechora,65.1472,57.2244,19.06,58,94,3.69,RU,1690940527
106,muri,23.3667,85.8667,25.52,95,100,6.9,IN,1690940527
107,college,64.8569,-147.8028,25.99,46,40,4.12,US,1690940527
108,badger,64.8,-147.5333,25.95,46,20,4.12,US,1690940528
109,sarikei,2.1167,111.5167,27.83,68,97,1.02,MY,1690940528
110,anadyr,64.75,177.4833,13.28,76,20,7.0,RU,1690940528
111,isafjordur,66.0755,-23.124,9.37,86,90,1.91,IS,1690940528
112,barquisimeto,10.0739,-69.3228,22.35,83,68,5.14,VE,1690940252
113,ribeira grande,38.5167,-28.7,22.65,87,100,1.79,PT,1690940529
114,elista,46.3078,44.2558,21.29,60,62,4.0,RU,1690940529
115,ishqoshim,36.7248,71.6133,16.83,46,11,1.7,TJ,1690940529
116,burang,30.25,81.1667,12.11,75,53,1.14,CN,1690940530
117,necochea,-38.5473,-58.7368,11.29,54,0,2.7,AR,1690940530
118,fort st. john,56.2499,-120.8529,17.94,68,75,3.09,CA,1690940346
119,ta`u,-14.2336,-169.5144,26.99,82,100,5.48,AS,1690940530
120,yellowknife,62.456,-114.3525,22.29,43,75,3.09,CA,1690940531
121,kashgar,39.4547,75.9797,25.56,31,20,3.0,CN,1690940531
122,pacific grove,36.6177,-121.9166,21.23,87,100,4.12,US,1690940531
123,hengchun,22.0042,120.7439,28.68,84,78,8.52,TW,1690940531
124,lorengau,-2.0226,147.2712,28.26,78,87,4.58,PG,1690940532
125,tokar,18.4254,37.729,32.42,48,64,13.07,SD,1690940532
126,kirkwall,58.9848,-2.9587,12.03,87,100,0.51,GB,1690940532
127,taghazout,30.5426,-9.7112,20.43,80,0,0.21,MA,1690940532
128,mumbwa,-14.9783,27.0619,14.86,64,19,4.67,ZM,1690940533
129,wailua homesteads,22.0669,-159.378,30.24,75,40,8.23,US,1690940533
130,kuala terengganu,5.3302,103.1408,26.97,89,20,1.03,MY,1690940533
131,saipan,15.1355,145.701,29.8,100,40,2.57,MP,1690940533
132,lethem,3.3803,-59.7968,24.27,86,52,2.81,GY,1690940534
133,port alberni,49.2413,-124.8028,26.6,43,91,0.89,CA,1690940534
134,bandundu,-3.3167,17.3667,23.27,56,9,1.39,CD,1690940534
135,bredasdorp,-34.5322,20.0403,6.19,87,0,1.2,ZA,1690940534
136,sittwe,20.15,92.9,27.25,90,100,7.35,MM,1690940535
137,puerto natales,-51.7236,-72.4875,-0.54,74,100,8.27,CL,1690940535
138,san patricio,28.017,-97.5169,32.52,58,1,5.07,US,1690940535
139,dudinka,69.4058,86.1778,19.79,55,0,9.64,RU,1690940535
140,kailashahar,24.3333,92.0167,27.27,93,100,1.43,IN,1690940536
141,wewak,-3.5534,143.6268,29.47,70,20,4.48,PG,1690940536
142,arkhangel'sk,64.5401,40.5433,15.63,94,88,1.1,RU,1690940536
143,iskateley,67.6803,53.1512,18.52,72,0,4.46,RU,1690940536
144,beloretsk,53.9631,58.3981,14.81,91,7,1.03,RU,1690940537
145,biloela,-24.4167,150.5,24.22,40,61,6.39,AU,1690940537
146,itoman,26.1247,127.6694,26.21,100,75,28.29,JP,1690940537
147,kaeng khro,16.1086,102.2581,27.45,74,100,4.66,TH,1690940537
148,mejit,10.2753,170.8646,27.41,80,100,6.59,MH,1690940538
149,kone,-21.0595,164.8658,24.93,40,1,5.01,NC,1690940538
150,santiago de cao,-7.9589,-79.2392,22.07,78,75,3.09,PE,1690940538
151,uba,-21.12,-42.9428,14.74,88,0,0.64,BR,1690940538
152,georgetown,5.4112,100.3354,28.96,87,20,3.09,MY,1690940517
153,ola,59.5833,151.2833,21.75,62,99,3.53,RU,1690940539
154,pago pago,-14.2781,-170.7025,30.55,79,40,6.17,AS,1690940432
155,mutuali,-14.8706,37.0044,17.82,78,67,0.66,MZ,1690940539
156,acapulco de juarez,16.8634,-99.8901,29.9,70,75,3.6,MX,1690940457
157,mahibadhoo,3.7833,72.9667,28.05,71,100,3.69,MV,1690940540
158,hadibu,12.65,54.0333,26.1,79,91,11.02,YE,1690940540
159,okha,53.5739,142.9478,12.35,93,100,6.19,RU,1690940540
160,tikrit,34.6071,43.6782,34.65,16,0,4.9,IQ,1690940540
161,rantoul,40.3084,-88.1559,24.46,74,0,1.54,US,1690940541
162,broome,42.2506,-75.833,15.92,83,0,0.45,US,1690940541
163,touros,-5.1989,-35.4608,24.94,84,5,5.87,BR,1690940541
164,el calafate,-50.3408,-72.2768,-2.27,77,75,7.95,AR,1690940542
165,nguigmi,14.2495,13.1092,30.53,45,75,7.75,NE,1690940542
166,bulanash,57.2783,61.9965,17.37,83,97,1.97,RU,1690940542
167,carutapera,-1.195,-46.02,24.25,95,7,2.95,BR,1690940542
168,nuuk,64.1835,-51.7216,5.34,100,100,5.14,GL,1690940543
169,codrington,-38.2667,141.9667,14.3,69,0,6.19,AU,1690940543
170,palikir - national government center,6.9248,158.1611,32.41,62,40,2.57,FM,1690940543
171,east london,-33.0153,27.9116,12.59,67,9,3.47,ZA,1690940543
172,shenzhen,22.5455,114.0683,31.59,82,100,1.3,CN,1690939812
173,ustyuzhna,58.8394,36.4321,16.23,87,33,1.56,RU,1690940544
174,shingu,33.7333,135.9833,29.93,68,43,2.67,JP,1690940320
175,coquimbo,-29.9533,-71.3436,12.85,94,0,1.03,CL,1690940401
176,gadzhiyevo,69.2551,33.3362,14.29,93,100,3.64,RU,1690940545
177,paulden,34.8856,-112.4682,28.64,59,60,1.08,US,1690940545
178,nova xavantina,-14.6667,-52.35,23.49,38,0,1.11,BR,1690940545
179,utrik,11.2278,169.8474,28.49,76,96,7.02,MH,1690940546
180,brookings,44.3114,-96.7984,27.32,75,0,4.12,US,1690940546
181,talalayivka,50.9578,31.9209,15.73,90,2,2.8,UA,1690940546
182,new norfolk,-42.7826,147.0587,12.18,59,74,2.01,AU,1690940546
183,yuzhno-kurilsk,44.0306,145.8556,22.16,73,78,2.49,RU,1690940547
184,hami,42.8,93.45,31.81,21,18,3.85,CN,1690940547
185,port alfred,-33.5906,26.891,12.52,79,15,3.45,ZA,1690940547
186,katsuura,35.1333,140.3,32.01,76,28,6.02,JP,1690940548
187,hailun,47.45,126.9333,23.78,93,100,4.18,CN,1690940548
188,bay city,43.5945,-83.8889,22.12,76,0,1.54,US,1690940466
189,ad dindar,13.2,34.1667,22.91,90,69,3.52,SD,1690940549
190,agat village,13.3886,144.6585,31.06,81,100,1.54,GU,1690940549
191,saint-louis du nord,19.9333,-72.7167,28.04,83,100,4.35,HT,1690940549
192,yendi,9.4427,-0.0099,23.22,93,100,3.68,GH,1690940549
193,ulladulla,-35.35,150.4667,17.56,59,46,3.0,AU,1690940549
194,nadym,65.5333,72.5167,21.35,74,1,4.75,RU,1690940550
195,gaalkacyo,6.7697,47.4308,25.13,68,100,8.68,SO,1690940550
196,boujniba,32.9005,-6.7746,21.28,54,0,2.3,MA,1690940550
197,zouerate,22.7187,-12.4521,33.79,14,0,5.13,MR,1690940551
198,tambopata,-12.7333,-69.1833,23.73,57,0,0.34,PE,1690940551
199,alexandroupoli,40.8475,25.8744,20.9,78,0,0.0,GR,1690940551
200,regina,50.4501,-104.6178,26.99,53,75,5.66,CA,1690939833
201,whitehorse,60.7161,-135.0538,20.17,66,75,3.58,CA,1690940408
202,stawell,-37.05,142.7667,12.55,73,0,4.85,AU,1690940552
203,pathein,16.7833,94.7333,28.54,81,91,6.89,MM,1690940355
204,slyudyanka,51.6594,103.7061,17.86,100,100,2.0,RU,1690940552
205,ust-nera,64.5667,143.2,16.26,48,86,1.99,RU,1690940552
206,loango,-4.6719,11.8312,21.81,83,100,1.54,CG,1690940553
207,guangming,45.3333,122.7833,27.09,82,99,3.48,CN,1690940553
208,tidjikja,18.5564,-11.4271,31.11,41,3,7.53,MR,1690940553
209,brazzaville,-4.2658,15.2832,21.2,83,75,1.03,CG,1690940553
210,kopychyntsi,49.1044,25.9103,16.91,72,100,3.37,UA,1690940554
211,tangancicuaro de arista,19.9,-102.1333,20.07,79,99,1.91,MX,1690940554
212,west island,-12.1568,96.8225,24.99,73,75,6.69,CC,1690940554
213,padang,-0.9492,100.3543,26.03,74,63,0.82,ID,1690940554
214,kyren,51.6828,102.1408,17.26,98,100,1.31,RU,1690940555
215,genhe,50.7833,121.5167,27.42,40,26,3.34,CN,1690940555
216,la ronge,55.1001,-105.2842,22.14,56,20,5.14,CA,1690940555
217,hassi messaoud,31.6804,6.0729,31.92,22,0,1.03,DZ,1690940555
218,igarka,67.4667,86.5833,24.62,55,0,3.93,RU,1690940556
219,puerto ayora,-0.7393,-90.3518,24.75,92,59,2.68,EC,1690940556
220,polyarnyy,69.1989,33.4478,14.38,94,100,3.61,RU,1690940556
221,sinabang,2.4803,96.3801,27.07,76,96,1.37,ID,1690940556
222,amarante do maranhao,-5.5667,-46.7422,24.47,44,10,1.53,BR,1690940557
223,port lincoln,-34.7333,135.8667,16.94,54,0,6.64,AU,1690940472
224,queenstown,-31.8976,26.8753,3.67,76,8,1.14,ZA,1690940557
225,eshowe,-28.8865,31.4699,8.81,79,12,2.26,ZA,1690940557
226,colonia,50.9333,6.95,16.6,82,20,4.12,DE,1690940376
227,uzgen,40.7699,73.3007,27.16,28,97,2.93,KG,1690940558
228,minas de marcona,-15.2119,-75.1103,13.92,84,40,4.06,PE,1690940558
229,chalus,36.655,51.4204,24.7,88,40,1.03,IR,1690940558
230,cabo san lucas,22.8909,-109.9124,33.17,62,0,3.09,MX,1690940415
231,dongola,19.1667,30.4833,30.79,47,49,5.37,SD,1690940559
232,tamanrasset,22.785,5.5228,29.95,12,40,2.57,DZ,1690940559
233,aasiaat,68.7098,-52.8699,2.93,91,90,1.91,GL,1690940559
234,vadso,70.0744,29.7487,12.49,93,20,1.03,NO,1690940560
235,portland,45.5234,-122.6762,31.99,30,0,6.17,US,1690939762
236,qaryat suluq,31.6682,20.2521,25.84,62,0,1.01,LY,1690940560
237,nieuw amsterdam,5.8833,-55.0833,25.08,89,10,3.03,SR,1690940560
238,alofi,-19.0595,-169.9187,20.94,94,100,7.2,NU,1690940560
239,kilindoni,-7.9139,39.6668,24.75,78,5,7.3,TZ,1690940561
240,lerwick,60.1545,-1.1494,12.0,95,100,4.67,GB,1690940561
241,dzhetygara,52.1908,61.2006,16.52,84,2,4.12,KZ,1690940561
242,falmouth,50.1544,-5.0711,16.5,100,100,9.77,GB,1690940562
243,olinda,-8.0089,-34.8553,25.85,83,40,4.12,BR,1690940520
244,tobelo,1.7284,128.0095,29.19,69,11,2.37,ID,1690940562
245,birobidzhan,48.8,132.95,23.51,80,100,1.66,RU,1690940562
246,jinchang,38.4953,102.1739,26.01,42,100,1.22,CN,1690940562
247,mollendo,-17.0231,-72.0147,17.56,83,32,2.32,PE,1690940563
248,paracuru,-3.41,-39.0306,26.73,87,24,5.06,BR,1690940563
249,praia,14.9215,-23.5087,25.3,88,40,3.09,CV,1690940564
250,nova vicosa,-17.8919,-39.3719,20.74,78,0,2.85,BR,1690940565
251,korla,41.7597,86.1469,29.47,27,0,4.13,CN,1690940565
252,megion,61.0296,76.1136,19.01,84,24,4.03,RU,1690940565
253,zelenogorskiy,55.0333,87.0,21.76,69,31,0.72,RU,1690940566
254,mutoko,-17.397,32.2268,8.31,88,30,1.4,ZW,1690940566
255,kill devil hills,36.0307,-75.676,25.55,72,0,3.6,US,1690940566
256,chonchi,-42.6128,-73.8092,6.73,84,83,3.65,CL,1690940566
257,menongue,-14.6585,17.691,8.02,20,95,2.1,AO,1690940567
258,torghay,49.6339,63.4981,22.83,50,0,6.31,KZ,1690940567
259,porbandar,21.6422,69.6093,27.12,85,100,8.62,IN,1690940560
260,masuguru,-11.3667,38.4167,21.14,74,2,2.1,TZ,1690940567
261,tahara,34.6667,137.2667,30.97,69,45,3.48,JP,1690940568
262,uvinza,-5.1036,30.3911,19.22,41,32,2.21,TZ,1690940568
263,novodvinsk,64.4165,40.8122,15.54,94,97,1.25,RU,1690940568
264,bage,-31.3314,-54.1069,17.27,91,0,3.46,BR,1690940568
265,kerikeri,-35.2268,173.9474,13.28,84,8,4.02,NZ,1690940569
266,mormugao,15.4,73.8,25.59,100,75,5.14,IN,1690940569
267,ningbo,29.8782,121.5495,29.99,79,40,4.0,CN,1690940386
268,fort bragg,35.139,-79.006,27.12,65,0,3.6,US,1690940570
269,bijrauni,24.9167,77.6333,25.42,87,91,6.54,IN,1690940570
270,acajutla,13.5928,-89.8275,25.47,95,100,9.01,SV,1690940570
271,port isabel,26.0734,-97.2086,32.04,76,0,5.14,US,1690940571
272,papatowai,-46.5619,169.4708,5.41,69,100,11.08,NZ,1690940571
273,preobrazheniye,42.9019,133.9064,26.58,69,100,6.08,RU,1690940571
274,klaksvik,62.2266,-6.589,11.51,96,100,8.08,FO,1690940571
275,urkarakh,42.163,47.6307,16.66,66,0,2.78,RU,1690940572
276,avarua,-21.2078,-159.775,22.03,83,75,4.12,CK,1690940572
277,izhevsk,56.85,53.2333,16.74,97,77,1.76,RU,1690940474
278,richards bay,-28.783,32.0377,14.06,78,28,1.51,ZA,1690940572
279,medvezh'yegorsk,62.9167,34.4667,16.24,85,63,1.48,RU,1690940572
280,uturoa,-16.7333,-151.4333,26.48,70,46,6.41,PF,1690940573
281,nemuro,43.3236,145.575,20.05,82,100,6.44,JP,1690940573
282,ivrindi,39.5839,27.4864,21.35,87,0,1.03,TR,1690940573
283,afif,23.9065,42.9172,24.21,26,4,4.67,SA,1690940574
284,kodinsk,58.6881,99.1844,22.06,76,19,1.45,RU,1690940574
285,lata,40.1629,-8.3327,15.77,99,62,1.06,PT,1690940574
286,lewistown,40.5992,-77.5714,20.34,90,0,0.0,US,1690940574
287,rosarito,32.3333,-117.0333,25.41,75,26,3.23,MX,1690940431
288,prado,-17.3411,-39.2208,20.28,81,0,2.3,BR,1690940575
289,santarem,-2.4431,-54.7083,27.07,94,0,1.03,BR,1690940575
290,tromso,69.6496,18.957,14.1,77,20,1.54,NO,1690940575
291,ebon,4.582,168.6964,28.52,67,66,0.8,MH,1690940575
292,kenora,49.8167,-94.4337,22.54,83,75,2.57,CA,1690940576
293,shymkent,42.3,69.6,24.33,36,0,3.0,KZ,1690940576
294,holualoa,19.6228,-155.9522,27.1,74,75,5.14,US,1690940576
295,fomboni,-12.28,43.7425,25.35,74,27,9.04,KM,1690940576
296,tazacorte,28.629,-17.9293,23.54,95,20,6.69,ES,1690940577
297,rongelap,11.1635,166.8941,28.25,78,99,5.8,MH,1690940577
298,st. john's,47.5649,-52.7093,16.2,92,75,3.09,CA,1690940355
299,aktau,43.65,51.2,28.32,34,0,7.03,KZ,1690940577
300,kapuskasing,49.4169,-82.4331,19.05,63,75,1.54,CA,1690940578
301,mao,39.8885,4.2658,26.31,94,75,2.06,ES,1690940578
302,taltal,-25.4,-70.4833,14.62,88,39,0.35,CL,1690940578
303,tangalle,6.024,80.7911,27.09,79,100,5.72,LK,1690940579
304,sena madureira,-9.0656,-68.6569,24.51,49,6,0.47,BR,1690940579
305,oriximina,-1.7656,-55.8661,24.56,78,100,0.33,BR,1690940579
306,harper,4.375,-7.7169,24.65,88,100,5.67,LR,1690940579
307,bonthe,7.5264,-12.505,24.86,89,100,4.51,SL,1690940580
308,praia da vitoria,38.7333,-27.0667,24.14,83,20,3.24,PT,1690940580
309,lawton,34.6087,-98.3903,37.95,27,0,3.6,US,1690940495
310,ponta delgada,37.7333,-25.6667,22.4,88,20,1.03,PT,1690940580
311,kismayo,-0.3582,42.5454,24.53,84,91,7.33,SO,1690940581
312,boende,-0.2167,20.8667,22.95,79,61,1.24,CD,1690940581
313,portage la prairie,49.9728,-98.2926,26.07,67,75,1.03,CA,1690940521
314,marsh harbour,26.5412,-77.0636,29.37,66,94,0.88,BS,1690940582
315,prescott,34.54,-112.4685,27.76,55,20,2.06,US,1690940582
316,aur,8.1499,171.1687,27.91,78,31,6.94,MH,1690940582
317,kapa'a,22.0752,-159.319,30.99,75,40,8.23,US,1690940582
318,christchurch,-43.5333,172.6333,10.23,45,40,9.26,NZ,1690940583
319,kingston,17.997,-76.7936,30.53,81,20,7.72,JM,1690939962
320,maues,-3.3836,-57.7186,26.1,59,85,1.15,BR,1690940583
321,dalandzadgad,43.5708,104.425,27.91,31,13,8.22,MN,1690940583
322,qobustan,40.0824,49.412,26.52,57,0,1.39,AZ,1690940583
323,palencia,42.4167,-4.5,21.55,83,0,0.72,ES,1690940584
324,khenifra,32.9333,-5.6667,25.26,26,1,1.03,MA,1690940584
325,amursk,50.2261,136.8994,22.61,58,82,0.56,RU,1690940584
326,bamboo flat,11.7,92.7167,29.05,79,40,6.17,IN,1690940584
327,besisahar,28.2313,84.3761,26.49,85,100,0.34,NP,1690940585
328,kirakira,-10.4544,161.9205,26.91,78,100,5.94,SB,1690940585
329,bimbo,4.2567,18.4158,24.96,94,20,0.0,CF,1690940585
330,tura,25.5198,90.2201,26.8,84,100,2.41,IN,1690940586
331,dhidhdhoo,6.8833,73.1,28.15,74,100,5.57,MV,1690940586
332,pizarro,4.9533,-77.366,26.24,84,82,1.27,CO,1690940586
333,hithadhoo,-0.6,73.0833,27.03,72,95,0.98,MV,1690940587
334,kampli,15.4,76.6167,24.49,78,100,7.42,IN,1690940587
335,kristiansund,63.1115,7.732,15.03,88,100,1.54,NO,1690940587
336,sur,22.5667,59.5289,30.75,58,11,3.13,OM,1690940024
337,mount pearl,47.5166,-52.7813,15.74,92,75,3.09,CA,1690940588
338,markovo,57.3206,107.0881,20.88,75,99,2.25,RU,1690940588
339,atambua,-9.1061,124.8925,27.97,38,2,1.65,ID,1690940588
340,vyaz'ma,55.2104,34.2951,14.7,97,26,2.27,RU,1690940588
341,fernandopolis,-20.2839,-50.2464,18.87,38,0,2.12,BR,1690940589
342,punta del este,-34.9667,-54.95,19.42,87,0,0.51,UY,1690940589
343,la passe,45.5549,-0.8967,20.55,86,32,8.73,FR,1690940589
344,saint-louis,16.3333,-15.0,28.11,60,98,6.41,SN,1690940590
345,keflavik,64.0049,-22.5624,10.24,93,0,4.63,IS,1690940590
346,mtwara,-10.2667,40.1833,21.09,86,4,4.44,TZ,1690940590
347,eduardo castex,-35.915,-64.2945,14.64,51,0,4.64,AR,1690940590
348,pontes e lacerda,-15.2261,-59.3353,24.23,39,8,1.26,BR,1690940591
349,hilo,19.7297,-155.09,29.41,76,20,7.72,US,1690940591
350,viedma,-40.8135,-62.9967,13.08,32,26,6.9,AR,1690940591
351,kangding,30.0513,101.9603,20.06,69,5,2.14,CN,1690940592
352,mazagao,-0.115,-51.2894,26.03,89,79,1.99,BR,1690940592
353,turbat,26.0023,63.044,27.82,78,95,2.39,PK,1690940592
354,brisas de zicatela,15.8369,-97.0419,27.29,65,75,1.54,MX,1690940592
355,hagi,34.4,131.4167,33.05,61,4,5.84,JP,1690940593
356,pisco,-13.7,-76.2167,18.03,82,20,4.63,PE,1690940593
357,lawrenceburg,38.0373,-84.8966,23.94,56,0,1.54,US,1690940593
358,dongkan,33.9997,119.8308,30.13,73,16,3.72,CN,1690940593
359,katsuren-haebaru,26.3369,127.8719,26.21,100,100,24.18,JP,1690940594
360,chui,-33.6971,-53.4616,17.16,95,0,2.94,UY,1690940594
361,candido mendes,-1.4467,-45.7167,23.69,97,9,1.6,BR,1690940594
362,sodra sandby,56.5667,16.6167,15.5,93,8,4.78,SE,1690940594
363,gandajika,-6.75,23.95,20.34,31,89,2.29,CD,1690940595
364,ustrzyki dolne,49.4304,22.5938,14.44,93,100,1.09,PL,1690940595
365,laascaanood,8.4774,47.3597,22.94,69,100,12.93,SO,1690940595
366,dzuunharaa,48.8523,106.4579,19.44,96,100,0.87,MN,1690940595
367,happy valley-goose bay,53.3168,-60.3315,14.17,88,75,0.0,CA,1690940596
368,baikonur,45.6167,63.3167,27.32,24,0,1.84,KZ,1690940596
369,el nido,11.1858,119.3956,29.21,73,100,6.56,PH,1690940596
370,mount gambier,-37.8333,140.7667,14.56,66,0,5.0,AU,1690940596
371,vettavalam,12.1,79.25,27.88,53,100,6.3,IN,1690940597
372,rethymno,35.3647,24.4714,25.79,59,0,0.22,GR,1690940597
373,puerto aysen,-45.4,-72.7,2.63,92,100,4.52,CL,1690940597
374,moranbah,-22.0016,148.0466,23.79,42,0,8.63,AU,1690940597
375,ulanhot,46.0833,122.0833,28.38,68,89,1.47,CN,1690940598
376,laghouat,33.8,2.8651,26.26,25,0,2.61,DZ,1690940598
377,kosti,13.1629,32.6635,25.09,80,48,3.87,SD,1690940598
378,beloyarskiy,63.7119,66.6722,18.11,68,94,2.24,RU,1690940598
379,prachuap khiri khan,12.2167,99.75,25.73,79,100,3.75,TH,1690940384
380,nema,57.5067,50.5011,15.82,96,58,1.9,RU,1690940599
381,kaa-khem,51.6833,94.7333,22.46,62,100,1.01,RU,1690940599
382,anna regina,7.2644,-58.5077,26.58,81,0,2.84,GY,1690940599
383,hasaki,35.7333,140.8333,36.28,78,13,7.22,JP,1690940600
384,garden city,42.3256,-83.331,22.97,77,75,2.57,US,1690940132
385,jalai nur,49.45,117.7,28.31,50,57,5.52,CN,1690940600
386,timimoun,29.2639,0.231,37.21,11,97,4.12,DZ,1690940600
387,namdrik,5.5994,168.1028,28.33,71,54,2.4,MH,1690940600
388,udachny,66.4167,112.4,23.03,46,52,2.9,RU,1690940601
389,ostersund,63.1792,14.6357,12.56,100,100,4.12,SE,1690940601
390,puerto baquerizo moreno,-0.9,-89.6,24.4,79,66,4.08,EC,1690940408
391,ozu,33.5,132.55,32.88,58,17,2.16,JP,1690940601
392,olyokminsk,60.3736,120.4264,22.24,34,59,1.87,RU,1690940602
393,hammerfest,70.6634,23.6821,15.25,77,60,4.12,NO,1690940602
394,al kharijah,25.4514,30.5464,30.16,20,0,3.53,EG,1690940602
395,watertown,42.3709,-71.1828,19.56,65,0,1.54,US,1690940415
396,mukalla,14.5425,49.1242,29.6,68,55,1.17,YE,1690940603
397,kandy,7.2955,80.6356,23.78,75,100,2.48,LK,1690940603
398,kodyma,48.0988,29.1246,16.99,82,94,2.21,UA,1690940603
399,cidreira,-30.1811,-50.2056,16.37,89,0,3.4,BR,1690940603
400,dul'durga,50.6761,113.5931,28.37,34,100,3.47,RU,1690940604
401,novyy turtkul',41.55,61.0167,22.95,26,0,4.04,UZ,1690940604
402,yambio,4.5721,28.3955,19.73,99,100,1.14,SS,1690940604
403,nova sintra,14.8667,-24.7167,22.52,84,10,2.02,CV,1690940604
404,muang xay,20.7,101.9833,22.22,99,100,1.35,LA,1690940605
405,quellon,-43.1167,-73.6167,6.14,87,75,4.12,CL,1690940605
406,west bay,19.3667,-81.4167,31.04,82,40,4.63,KY,1690940605
407,mar del plata,-38.0023,-57.5575,12.75,62,0,2.06,AR,1690940378
408,nogliki,51.8333,143.1667,13.36,92,100,8.17,RU,1690940606
409,loukhi,66.0764,33.0381,16.63,82,100,1.64,RU,1690940606
410,balotra,25.8333,72.2333,28.21,78,0,8.06,IN,1690940606
411,boa vista,2.8197,-60.6733,27.99,74,40,2.06,BR,1690940538
412,jianshui,23.6363,102.8264,21.42,92,100,0.35,CN,1690940607
413,malango,-2.9627,119.9001,25.5,71,52,1.58,ID,1690940607
414,leh,34.1667,77.5833,17.52,44,20,1.79,IN,1690940367
415,sept-iles,50.2001,-66.3821,14.0,80,75,3.09,CA,1690940607
416,princeville,45.7668,-61.2985,17.4,92,40,0.0,CA,1690940608
417,banjar,-8.19,114.9675,29.54,59,4,1.05,ID,1690940608
418,namibe,-15.1961,12.1522,16.88,82,59,0.71,AO,1690940608
419,fortuna,40.5982,-124.1573,15.52,93,100,3.6,US,1690940608
420,pudozh,61.8099,36.5345,15.52,85,22,0.96,RU,1690940609
421,kaifeng,34.7911,114.3483,30.5,69,9,3.47,CN,1690940609
422,vila franca do campo,37.7167,-25.4333,22.23,93,16,1.93,PT,1690940610
423,erenhot,43.6475,111.9767,31.12,40,59,6.17,CN,1690940610
424,mocorito,25.4833,-107.9167,25.45,92,71,2.13,MX,1690940602
425,chyorny yar,48.0624,46.1091,23.89,45,4,0.85,RU,1690940611
426,remire-montjoly,4.9167,-52.2667,24.02,100,20,0.0,GF,1690940612
427,dakhla,23.6848,-15.958,20.04,90,0,11.98,EH,1690940612
428,salekhard,66.53,66.6019,18.83,67,5,5.17,RU,1690940612
429,guilford,36.0668,-79.7998,24.16,72,20,4.12,US,1690940612
430,inari,68.906,27.0288,12.11,97,59,1.02,FI,1690940613
431,eastham,41.8301,-69.9739,19.01,67,0,0.0,US,1690940613
432,banda aceh,5.5577,95.3222,29.37,64,100,6.02,ID,1690940613
433,rokytne,51.2796,27.214,17.99,80,100,2.37,UA,1690940614
434,karasburg,-28.0167,18.75,7.9,31,0,5.76,NA,1690940614
435,mikuni,36.2171,136.1519,34.95,60,97,4.72,JP,1690940614
436,pallasovka,50.05,46.8833,23.48,45,90,2.86,RU,1690940615
437,cavan,53.9908,-7.3606,13.05,98,100,6.34,IE,1690940615
438,saint-philippe,-21.3585,55.7679,21.77,84,45,3.78,RE,1690940615
439,rio grande,-32.035,-52.0986,14.41,94,0,2.79,BR,1690940615
440,phalodi,27.1333,72.3667,28.64,73,7,9.52,IN,1690940616
441,glace bay,46.1969,-59.957,18.25,87,75,2.06,CA,1690940616
442,nyandoma,61.669,40.1991,14.18,86,2,1.35,RU,1690940616
443,lycksele,64.5954,18.6735,11.93,100,100,0.51,SE,1690940616
444,isola di capo rizzuto,38.96,17.0933,23.99,59,4,3.58,IT,1690940617
445,raduzhny,62.0961,77.475,20.87,80,91,3.92,RU,1690940617
446,khandyga,62.6667,135.6,19.32,46,91,2.43,RU,1690940617
447,karratha,-20.7377,116.8463,25.54,62,5,3.61,AU,1690940617
448,trairi,-3.2778,-39.2689,25.05,87,20,4.61,BR,1690940474
449,ad dilam,23.9915,47.1627,33.23,12,7,3.24,SA,1690940618
450,kayenta,36.7278,-110.2546,25.71,37,13,9.1,US,1690940618
451,cacu,-18.5567,-51.1308,21.23,40,0,0.81,BR,1690940618
452,sitka,57.0531,-135.33,14.94,88,100,0.0,US,1690940619
453,nadi,-17.8,177.4167,27.0,61,20,5.14,FJ,1690940160
454,manicore,-5.8092,-61.3003,27.48,59,99,0.35,BR,1690940619
455,la sarre,48.8002,-79.1996,14.41,51,73,2.49,CA,1690940619
456,lake havasu city,34.4839,-114.3224,40.68,23,0,4.12,US,1690940620
457,laboulaye,-34.1266,-63.3912,17.8,68,0,2.43,AR,1690940620
458,vila do maio,15.1333,-23.2167,25.44,79,9,1.44,CV,1690940620
459,salym,60.0625,71.4789,18.92,94,74,2.82,RU,1690940621
460,podgorenskiy,50.405,39.6429,18.42,76,83,0.66,RU,1690940621
461,funafuti,-8.5243,179.1942,32.0,79,75,2.57,TV,1690940621
462,tehran,35.6944,51.4215,27.99,21,20,2.06,IR,1690940614
463,oodweyne,9.4092,45.064,22.48,59,100,8.67,SO,1690940622
464,port saint john's,-31.6229,29.5448,12.92,80,16,2.99,ZA,1690940622
465,palestine,31.9216,35.2033,23.83,55,0,1.81,PS,1690940622
466,barcelos,41.5388,-8.6151,18.71,96,59,1.16,PT,1690940622
467,hailar,49.2,119.7,26.9,59,75,3.22,CN,1690940623
468,siocon,7.7061,122.1353,29.72,67,92,2.83,PH,1690940623
469,ust'-ilimsk,58.0006,102.6619,22.41,68,64,1.48,RU,1690940623
470,vrangel',42.7297,133.0839,22.26,88,100,3.81,RU,1690940623
471,tadine,-21.55,167.8833,21.67,62,46,10.29,NC,1690940624
472,hancheng,32.5186,112.3522,30.0,74,0,0.5,CN,1690940624
473,solleftea,63.1667,17.2667,10.92,99,100,1.51,SE,1690940624
474,zunyi,27.6867,106.9072,23.26,90,100,2.09,CN,1690940624
475,bodaybo,57.8506,114.1933,20.77,60,62,1.19,RU,1690940624
476,fortaleza,-3.7227,-38.5247,27.07,78,40,4.12,BR,1690940625
477,kotel'nich,58.3089,48.348,15.58,97,58,1.95,RU,1690940625
478,puerto salgar,5.463,-74.6544,26.9,61,99,3.41,CO,1690940625
479,bac lieu,9.285,105.7244,29.08,72,99,6.64,VN,1690940626
480,kharan,28.5833,65.4167,31.02,51,6,3.32,PK,1690940626
481,timmins,48.4669,-81.3331,14.9,82,75,1.03,CA,1690940519
482,susuman,62.7833,148.1667,15.5,48,77,5.42,RU,1690940626
483,porto novo,6.4965,2.6036,25.9,89,99,4.92,BJ,1690940627
484,caiuti-sat,46.1833,26.9333,19.04,68,100,1.45,RO,1690940627
485,topolovgrad,42.0833,26.3333,19.85,76,27,2.32,BG,1690940627
486,sandnessjoen,66.0217,12.6316,12.29,78,100,5.81,NO,1690940627
487,lalpur,22.2,69.9667,26.41,85,100,7.47,IN,1690940628
488,shakawe,-18.3667,21.85,8.54,26,0,2.52,BW,1690940628
489,majene,-3.5403,118.9707,28.88,68,7,6.16,ID,1690940628
490,kalengwa,-13.4659,25.0027,15.6,57,86,3.65,ZM,1690940629
491,port-gentil,-0.7193,8.7815,22.34,77,100,5.25,GA,1690940629
492,halvad,23.0167,71.1833,26.89,82,100,5.93,IN,1690940629
493,gerash,27.6652,54.1371,28.08,44,0,1.45,IR,1690940629
494,shalqar,47.8333,59.6,24.75,35,0,3.78,KZ,1690940630
495,kalachinsk,55.0529,74.5751,21.51,65,8,1.67,RU,1690940630
496,buchen,49.5239,9.3231,14.68,88,94,3.36,DE,1690940630
497,tsuyama,35.05,134.0,32.68,66,100,3.03,JP,1690940630
498,oltinko'l,40.8011,72.1634,31.33,18,93,2.32,UZ,1690940631
499,iguape,-24.7081,-47.5553,16.79,94,6,1.54,BR,1690940631
500,kiunga,-6.1219,141.2906,27.69,71,100,2.44,PG,1690940631
501,saint-pierre,-21.3393,55.4781,21.82,64,100,1.03,RE,1690940631
502,taoudenni,22.6783,-3.9836,39.7,7,35,3.41,ML,1690940632
503,miri,4.4148,114.0089,30.08,79,20,2.06,MY,1690940373
504,kavieng,-2.5744,150.7967,28.11,78,80,6.37,PG,1690940632
505,luderitz,-26.6481,15.1594,18.08,28,2,8.68,NA,1690940632
506,ust'-uda,54.1742,103.0304,20.04,87,100,2.23,RU,1690940632
507,tual,-5.6667,132.75,26.27,83,16,8.81,ID,1690940633
508,tipasa,36.5897,2.4475,25.57,69,0,0.77,DZ,1690940633
509,les cayes,18.2,-73.75,27.13,79,93,2.02,HT,1690940255
510,north ward,-19.2454,146.8075,24.28,57,23,6.9,AU,1690940634
511,fort william,56.8165,-5.1121,14.61,80,100,2.39,GB,1690940634
512,cururupu,-1.8283,-44.8683,23.54,96,18,1.52,BR,1690940635
513,moab,38.5733,-109.5498,31.03,32,34,4.67,US,1690940635
514,beledweyne,4.7358,45.2036,24.9,71,100,7.38,SO,1690940635
515,lazaro cardenas,17.9583,-102.2,27.75,80,55,1.61,MX,1690940635
516,asau,46.4333,26.4,17.51,75,99,2.24,RO,1690940636
517,meadow lakes,61.6247,-149.6011,25.21,61,0,3.6,US,1690940636
518,crane,31.3974,-102.3501,33.85,25,26,9.0,US,1690940636
519,ramanuj ganj,23.8,83.7,24.48,96,100,3.61,IN,1690940636
520,damasak,13.0977,12.4952,27.94,53,77,5.53,NG,1690940637
521,nakhodka,42.8333,132.8947,23.18,88,100,2.42,RU,1690940637
522,"laikit, laikit ii (dimembe)",1.4792,124.9735,30.47,58,20,5.66,ID,1690940637
523,yerofey pavlovich,53.9667,121.9667,20.89,33,100,3.78,RU,1690940638
524,sines,37.9562,-8.8698,18.49,92,0,4.51,PT,1690940638
525,pleiku,13.9833,108.0,20.47,98,100,4.27,VN,1690940638
526,gunupur,19.0833,83.8167,25.71,90,100,1.73,IN,1690940282
527,al majaridah,19.1236,41.9111,30.61,26,21,0.41,SA,1690940639
528,al kharj,24.155,47.3346,33.32,11,16,3.9,SA,1690940639
529,slave lake,55.2834,-114.769,21.99,49,0,7.72,CA,1690940639
530,smithers,54.7804,-127.1743,22.18,35,40,1.54,CA,1690940639
531,saryozek,44.3583,77.9753,28.74,21,100,0.49,KZ,1690940640
532,launceston,-41.45,147.1667,11.2,82,100,5.14,AU,1690940640
533,champerico,14.3,-91.9167,28.68,74,100,0.93,GT,1690940640
534,el granada,37.5027,-122.4694,22.12,82,100,9.77,US,1690940578
535,chegdomyn,51.1167,133.0167,24.03,70,23,1.9,RU,1690940641
536,ouallam,14.3188,2.0866,30.74,56,100,5.37,NE,1690940641
537,puerto pilon,9.3644,-79.7933,28.23,87,82,0.82,PA,1690940641
538,dunedin,-45.8742,170.5036,4.89,77,97,4.92,NZ,1690940523
539,bakanas,44.8081,76.2772,28.72,34,100,6.65,KZ,1690940642
540,maumere,-8.6199,122.2111,27.82,55,5,1.91,ID,1690940642
541,la gi,10.6667,107.7833,27.78,81,100,5.71,VN,1690940642
542,newman,37.3138,-121.0208,33.13,37,26,1.79,US,1690940643
543,san jose del cabo,23.0589,-109.6977,33.16,62,20,6.69,MX,1690940401
544,neryungri,56.6709,124.6491,16.8,48,34,4.54,RU,1690940643
545,howrah,22.5892,88.3103,27.0,94,100,7.72,IN,1690940643
546,undurkhaan,47.3194,110.6556,26.43,48,97,5.26,MN,1690940644
547,sao francisco,-15.9486,-44.8644,20.21,44,0,1.35,BR,1690940644
548,lesnoy,57.6198,63.0784,17.16,87,6,2.27,RU,1690940644
549,shilovo,54.3204,40.874,16.08,95,98,2.07,RU,1690940644
550,aydintepe,40.3894,40.1506,15.61,69,0,1.39,TR,1690940645
551,tremonton,41.7119,-112.1655,22.55,63,100,8.05,US,1690940645
552,yaren,-0.5472,166.916,27.83,77,54,3.66,NR,1690940645
553,chinchani,19.8667,72.7,26.7,87,100,7.77,IN,1690940645
554,tynda,55.1667,124.7167,19.03,42,5,4.47,RU,1690940646
555,ketchikan,55.3422,-131.6461,18.26,68,75,4.12,US,1690940646
556,calvinia,-31.4707,19.776,5.81,40,6,3.86,ZA,1690940646
557,sao joao da barra,-21.6403,-41.0511,20.33,73,1,3.21,BR,1690940646
558,totness,5.8833,-56.3167,25.78,87,10,3.11,SR,1690940647
559,turrialba,9.9047,-83.6835,25.81,96,100,1.41,CR,1690940647
560,choibalsan,48.0667,114.5,29.52,45,89,7.33,MN,1690940647
561,formosa do rio preto,-11.0483,-45.1931,21.79,44,8,1.41,BR,1690940648
562,auki,-8.7676,160.7034,27.53,73,100,2.75,SB,1690940648
563,zayed city,24.3768,54.589,34.44,57,0,2.06,AE,1690940648
564,mount isa,-20.7333,139.5,25.87,34,2,7.72,AU,1690940648
565,rye,40.9807,-73.6837,23.95,67,20,1.54,US,1690940649
566,vezirkopru,41.1436,35.4547,18.27,86,82,0.5,TR,1690940649
567,kalymnos,36.95,26.9833,24.74,83,0,2.57,GR,1690940649
568,robertsport,6.7533,-11.3686,25.28,87,100,6.01,LR,1690940649
569,teknaf,20.8624,92.3058,27.19,91,100,6.41,BD,1690940650
570,zapata,26.9073,-99.2714,37.06,34,69,5.66,US,1690940353
571,busan,35.1028,129.0403,30.99,70,75,1.03,KR,1690940650
572,sheksna,59.21,38.5107,11.98,81,63,1.75,RU,1690940650
573,grand falls-windsor,48.9332,-55.6649,15.28,93,7,2.91,CA,1690940651
574,nicoya,10.1483,-85.452,24.26,95,94,1.23,CR,1690940651
